{"type": "FeatureCollection", "features": [{"type": "Feature", "properties": {"id": "clt-uptown", "name": "Uptown"}, "geometry": {"type": "Point", "coordinates": [-80.8431, 35.2271]}}, {"type": "Feature", "properties": {"id": "clt-south-end", "name": "South End"}, "geometry": {"type": "Point", "coordinates": [-80.8563, 35.212]}}, {"type": "Feature", "properties": {"id": "clt-noda", "name": "NoDa"}, "geometry": {"type": "Point", "coordinates": [-80.8175, 35.246]}}, {"type": "Feature", "properties": {"id": "clt-north-charlotte", "name": "North Charlotte / Druid Hills"}, "geometry": {"type": "Point", "coordinates": [-80.834, 35.256]}}, {"type": "Feature", "properties": {"id": "clt-plaza-midwood", "name": "Plaza Midwood"}, "geometry": {"type": "Point", "coordinates": [-80.81, 35.219]}}, {"type": "Feature", "properties": {"id": "clt-dilworth", "name": "Dilworth"}, "geometry": {"type": "Point", "coordinates": [-80.849, 35.203]}}, {"type": "Feature", "properties": {"id": "clt-myers-park", "name": "Myers Park"}, "geometry": {"type": "Point", "coordinates": [-80.837, 35.187]}}, {"type": "Feature", "properties": {"id": "clt-elizabeth", "name": "Elizabeth"}, "geometry": {"type": "Point", "coordinates": [-80.837, 35.221]}}, {"type": "Feature", "properties": {"id": "clt-montford", "name": "Montford"}, "geometry": {"type": "Point", "coordinates": [-80.841, 35.196]}}, {"type": "Feature", "properties": {"id": "clt-wesley-heights", "name": "Wesley Heights"}, "geometry": {"type": "Point", "coordinates": [-80.862, 35.233]}}, {"type": "Feature", "properties": {"id": "clt-eastway-shamrock", "name": "Eastway / Shamrock"}, "geometry": {"type": "Point", "coordinates": [-80.787, 35.225]}}, {"type": "Feature", "properties": {"id": "clt-southpark", "name": "SouthPark"}, "geometry": {"type": "Point", "coordinates": [-80.834, 35.158]}}, {"type": "Feature", "properties": {"id": "clt-university", "name": "University Area"}, "geometry": {"type": "Point", "coordinates": [-80.733, 35.307]}}, {"type": "Feature", "properties": {"id": "clt-ballantyne", "name": "Ballantyne"}, "geometry": {"type": "Point", "coordinates": [-80.849, 35.053]}}, {"type": "Feature", "properties": {"id": "clt-lake-norman", "name": "Lake Norman East"}, "geometry": {"type": "Point", "coordinates": [-80.842, 35.463]}}, {"type": "Feature", "properties": {"id": "clt-west-lake-norman", "name": "Western Lake Norman"}, "geometry": {"type": "Point", "coordinates": [-80.965, 35.435]}}, {"type": "Feature", "properties": {"id": "clt-north-iredell", "name": "Mooresville / Statesville"}, "geometry": {"type": "Point", "coordinates": [-80.818, 35.584]}}, {"type": "Feature", "properties": {"id": "clt-cabarrus", "name": "Concord / Kannapolis"}, "geometry": {"type": "Point", "coordinates": [-80.58, 35.409]}}, {"type": "Feature", "properties": {"id": "clt-matthews-mint-hill", "name": "Matthews / Mint Hill"}, "geometry": {"type": "Point", "coordinates": [-80.724, 35.132]}}, {"type": "Feature", "properties": {"id": "clt-indian-trail-stallings", "name": "Indian Trail / Stallings"}, "geometry": {"type": "Point", "coordinates": [-80.659, 35.076]}}, {"type": "Feature", "properties": {"id": "clt-monroe", "name": "Monroe / Weddington"}, "geometry": {"type": "Point", "coordinates": [-80.55, 35.002]}}, {"type": "Feature", "properties": {"id": "clt-gastonia", "name": "Gastonia"}, "geometry": {"type": "Point", "coordinates": [-81.187, 35.262]}}, {"type": "Feature", "properties": {"id": "clt-belmont-mt-holly", "name": "Belmont / Mount Holly"}, "geometry": {"type": "Point", "coordinates": [-81.038, 35.243]}}, {"type": "Feature", "properties": {"id": "clt-lake-wylie", "name": "Lake Wylie"}, "geometry": {"type": "Point", "coordinates": [-81.07, 35.105]}}, {"type": "Feature", "properties": {"id": "clt-fort-mill", "name": "Fort Mill / Tega Cay"}, "geometry": {"type": "Point", "coordinates": [-80.945, 35.007]}}]}